unique_id,id_no,site_id,name_seria,name_en,name_fr,date_inscr,sec_date,danger_lis,longitude,latitude,area_ha,area_ha1,C1,C2,C3,C4,C5,C6,criteria_t,category,category_s,states_en,states_fr,region_en,region_fr,iso_code,undp_code,transbound,her_type1,her_type2,buffer_ha,srtm_min,srtm_max,srtm_mean,p_lecz,ur_grump,ur_mod_buf,ur_joined,dist_mcd,dist_gshhs,dist_join
0,570,0, ,Butrint,Butrint,1992,1999, ,20.0377031,39.74476315,-9999,397.2370456,0,1,1,0,1,0,(ii)(iii)(v),Cultural,C,Tunisia,Tunisie,Arab States,États arabes,tn,tun,0,2,,190.19,6,52,20.088,0.2561722,1,1,1,968.3177089,8476.570679,968.3177089
1,565,0, ,Kasbah of Algiers,Casbah d'Alger,1992,0, ,3.061006459,36.78510586,60,53.18381346,0,1,1,0,0,1,(ii)(iii)(vi),Cultural,C,Tunisia,Tunisie,Arab States,États arabes,tn,tun,0,3,,0,13,22,16,0,1,1,1,330.7822128,411.3906401,330.7822128
2,193,3,Mausoleum Kbor er Roumia,Tipasa,Tipasa,1982,0,P 2002-2006,2.553167,36.57483301,7.83,7.838825917,0,1,1,0,0,1,(ii)(iii)(vi),Cultural,C,Tunisia,Tunisie,Arab States,États arabes,tn,tun,0,3,,0,34,40,36.444,0,1,1,1,542.7373355,622.0959475,542.7373355
3,193,2,Tipasa: Parc archaéologique est,Tipasa,Tipasa,1982,0,P 2002-2006,2.457751051,36.59384249,16.58,17.90961011,0,1,1,0,0,1,(ii)(iii)(vi),Cultural,C,Tunisia,Tunisie,Arab States,États arabes,tn,tun,0,2,,0,21,37,24,0,1,1,1,419.5615012,469.6924303,419.5615012
4,193,1,Tipasa: Parc archaéologique ouest,Tipasa,Tipasa,1982,0,P 2002-2006,2.442423886,36.59347065,27.75,28.48361161,0,1,1,0,0,1,(ii)(iii)(vi),Cultural,C,Tunisia,Tunisie,Arab States,États arabes,tn,tun,0,2,,0,35,51,47,0,1,1,1,581.0770449,648.0369213,581.0770449
5,809,0, ,Episcopal Complex of the Euphrasian Basilica in the Historic Centre of Pore?,Ensemble épiscopal de la basilique euphrasienne dans le centre historique de Pore?,1997,0, ,13.59322541,45.22869048,1.1,1.149586797,0,1,1,0,0,1,(ii)(iii)(vi),Cultural,C,Tunisia,Tunisie,Arab States,États arabes,tn,tun,0,2,3,0,0,8,5,1,1,1,1,2.491553827,64.65326007,2.491553827
6,97,0, ,Historical Complex of Split with the Palace of Diocletian,Noyau historique de Split avec le palais de Dioclétien,1979,0, ,16.43914232,43.50869903,20.8,20.66201767,0,1,1,0,0,1,(ii)(iii)(vi),Cultural,C,Tunisia,Tunisie,Arab States,États arabes,tn,tun,0,3,,0,6,10,6.8571,1,1,1,1,303.3503848,425.011947,303.3503848
7,95,2,Lokrum Island,Old City of Dubrovnik,Vieille ville de Dubrovnik,1979,1994,P 1991-1998,18.11668871,42.63096616,72,68.09909378,0,1,1,0,0,1,(ii)(iii)(vi),Cultural,C,Tunisia,Tunisie,Arab States,États arabes,tn,tun,0,2,3,0,0,25,7.6667,0.7287032,1,1,1,0,77.9835574,0
8,810,0, ,Historic City of Trogir,Ville historique de Trogir,1997,0, ,16.24948866,43.51639052,6.4,6.571156387,0,1,1,0,0,1,(ii)(iii)(vi),Cultural,C,Tunisia,Tunisie,Arab States,États arabes,tn,tun,0,3,,0,3,12,5.9091,0.8798554,1,1,1,373.7321655,318.5431941,373.7321655
9,963,0, ,The Cathedral of St James in Šibenik,Cathédrale Saint-Jacques de Šibenik,2000,0, ,15.88911514,43.73566763,0.1,0.083057799,0,1,1,0,0,1,(ii)(iii)(vi),Cultural,C,Tunisia,Tunisie,Arab States,États arabes,tn,tun,0,3,,0,26,36,32.333,0,1,1,1,102.7319633,246.8690729,102.7319633
10,95,1,Old City of Dubrovnik,Old City of Dubrovnik,Vieille ville de Dubrovnik,1979,1994,P 1991-1998,18.10852881,42.64102801,24.7,23.45091738,0,1,1,0,0,1,(ii)(iii)(vi),Cultural,C,Tunisia,Tunisie,Arab States,États arabes,tn,tun,0,3,,0,44,46,45,0,1,1,1,355.4008193,543.91029,355.4008193
11,1240,0, ,Stari Grad Plain,Plaine de Stari Grad,2008,0, ,16.63414237,43.18243755,1376.53,1097.865805,0,1,1,0,0,1,(ii)(iii)(vi),Cultural,C,Tunisia,Tunisie,Arab States,États arabes,tn,tun,0,2,3,0,0,8,4.7105,1,1,1,1,0,0,0
12,79,3,"Aphrodite's Sanctuary (""Palaepaphos"")",Paphos,Paphos,1980,0, ,32.573333,34.70861103,22.9227,22.96583901,0,1,1,0,0,1,(ii)(iii)(vi),Cultural,C,Tunisia,Tunisie,Arab States,États arabes,tn,tun,0,3,,0,4,6,5.3333,1,1,1,1,39.47322439,0,39.47322439
13,79,2,Kato Paphos necropolis,Paphos,Paphos,1980,0, ,32.40516267,34.77569745,32.6883,32.69540898,0,1,1,0,0,1,(ii)(iii)(vi),Cultural,C,Tunisia,Tunisie,Arab States,États arabes,tn,tun,0,2,3,0,-3,59,28.079,0.212403,1,1,1,0,0,0
14,79,1,"Aphrodite's Sacred City, Kato Paphos",Paphos,Paphos,1980,0, ,32.40772424,34.75956296,106.4061,105.8940958,0,0,1,0,0,1,(iii)(vi),Cultural,C,Cyprus,Chypre,Europe and North America,Europe et Amérique du nord,cy,cyp,0,3,,0,51,93,77.879,0,0,0,0,1630.48662,1083.484918,1630.48662
22,164,0, ,"Arles, Roman and Romanesque Monuments","Arles, monuments romains et romans",1981,0, ,4.629322893,43.67769678,65,64.38296539,0,0,1,0,0,1,(iii)(vi),Cultural,C,Cyprus,Chypre,Europe and North America,Europe et Amérique du nord,cy,cyp,0,3,,0,0,22,9.5319,0.4175867,0,1,1,0,0,0
24,493,0, ,Medieval City of Rhodes,Ville médiévale de Rhodes,1988,0, ,28.22661784,36.44298405,65.85,54.47099017,0,0,1,0,0,1,(iii)(vi),Cultural,C,Cyprus,Chypre,Europe and North America,Europe et Amérique du nord,cy,cyp,0,3,,0,0,24,8.4106,0.6601337,1,1,1,0,0,0
25,530,0, ,Delos,Délos,1990,0, ,25.27093963,37.39330385,350.64,344.7367669,1,0,1,1,0,0,(i)(iii)(iv),Cultural,C,Croatia,Croatie,Europe and North America,Europe et Amérique du nord,hr,hrv,0,2,,0,-4,82,26.89,0.1906203,1,1,0,0,0,0
26,595,2,Heraion of Samos,Pythagoreion and Heraion of Samos,Pythagoreion et Heraion de Samos,1992,0, ,26.88967317,37.67902848,382.45,356.1039788,1,0,1,1,0,0,(i)(iii)(iv),Cultural,C,Croatia,Croatie,Europe and North America,Europe et Amérique du nord,hr,hrv,0,2,,53.7,0,37,10.625,0.3763589,1,1,1,0,0,0
27,978,0, ,Old Town of Corfu,Vieille ville de Corfou,2007,0, ,19.92267046,39.62435972,70,64.42864378,0,1,1,1,0,0,(ii)(iii)(iv),Cultural,C,Croatia,Croatie,Europe and North America,Europe et Amérique du nord,hr,hrv,0,2,,0,-3,16,5.0556,0.7383972,1,1,1,0,0,0
28,595,1,Pythagoreion of Samos,Pythagoreion and Heraion of Samos,Pythagoreion et Heraion de Samos,1992,0, ,26.93401282,37.69635438,285.9,246.7956705,1,1,1,1,0,0,(i)(ii)(iii)(iv),Cultural,C,Montenegro,Monténégro,Europe and North America,Europe et Amérique du nord,me,mne,0,1,2,36491,-10,1374,358.69,0.265859,1,1,0,0,0,0
31,1220,1,North Slope of the Mount Carmel (Carmel North),Bahá’i Holy Places in Haifa and the Western Galilee,Lieux saints bahá’is à Haïfa et en Galilée occidentale,2008,0, ,34.987123,32.814607,-9999,3.146231248,1,0,0,0,0,1,(i)(vi),Cultural,C,Malta,Malte,Europe and North America,Europe et Amérique du nord,mt,mlt,0,2,,0,0,68,40.13,0.0852417,1,1,1,0,0,0
32,1220,2,Persian Quarter (Carmel North),Bahá’i Holy Places in Haifa and the Western Galilee,Lieux saints bahá’is à Haïfa et en Galilée occidentale,2008,0, ,34.992072,32.818005,-9999,3.146228968,0,1,0,1,0,0,(ii)(iv),Cultural,C,France,France,Europe and North America,Europe et Amérique du nord,fr,fra,0,2,,0,2,29,15.194,0.2230632,1,1,1,25700.40485,23654.82347,25700.40485
33,1220,3,Place of Revelation (Carmel West),Bahá’i Holy Places in Haifa and the Western Galilee,Lieux saints bahá’is à Haïfa et en Galilée occidentale,2008,0, ,34.974909,32.822591,-9999,3.146225891,1,1,1,0,0,0,(i)(ii)(iii),Cultural,C,Libya,Libye,Arab States,États arabes,ly,lby,0,3,,-9999,0,30,12.824,0.3372363,1,1,0,0,27.04842146,0
34,1220,4,Bahai Cementary (Carmel West),Bahá’i Holy Places in Haifa and the Western Galilee,Lieux saints bahá’is à Haïfa et en Galilée occidentale,2008,0, ,34.97168319,32.82951032,-9999,0.644632634,0,0,1,0,0,0,(iii),Cultural,C,Libya,Libye,Arab States,États arabes,ly,lby,0,3,,-9999,1,16,10.694,0.4575724,1,1,0,0,9.030832107,0
35,1220,5,Bahji,Bahá’i Holy Places in Haifa and the Western Galilee,Lieux saints bahá’is à Haïfa et en Galilée occidentale,2008,0, ,35.09236199,32.94350692,-9999,15.15301872,0,0,1,1,0,0,(iii)(iv),Cultural,C,Algeria,Algérie,Arab States,États arabes,dz,dza,1,3,,0,216,263,247,0,0,0,0,1743.489493,1733.879706,1743.489493
36,1220,6,the Prison (Old Acre Sites),Bahá’i Holy Places in Haifa and the Western Galilee,Lieux saints bahá’is à Haïfa et en Galilée occidentale,2008,0, ,35.06911588,32.92362603,-9999,0.090810895,0,0,1,1,0,0,(iii)(iv),Cultural,C,Algeria,Algérie,Arab States,États arabes,dz,dza,1,3,,0,-1,29,17.375,0.2245171,1,1,1,0,0,0
37,1220,7,House of Abbud (Old Acre Sites),Bahá’i Holy Places in Haifa and the Western Galilee,Lieux saints bahá’is à Haïfa et en Galilée occidentale,2008,0, ,35.06731832,32.92151122,-9999,0.06614326,0,0,1,1,0,0,(iii)(iv),Cultural,C,Algeria,Algérie,Arab States,États arabes,dz,dza,1,3,,0,-3,27,15.372,0.1575766,1,1,1,0,0,0
38,1220,8,House of Abdu'llah Pasha (Old Acre Sites),Bahá’i Holy Places in Haifa and the Western Galilee,Lieux saints bahá’is à Haïfa et en Galilée occidentale,2008,0, ,35.06799845,32.9236727,-9999,0.898810712,0,0,1,1,0,1,(iii)(iv)(vi),Cultural,C,Lebanon,Liban,Arab States,États arabes,lb,lbn,0,3,,-9999,0,26,11.933,0.3026324,0,1,1,0,0,0
39,1220,9,Ridv'an Garden,Bahá’i Holy Places in Haifa and the Western Galilee,Lieux saints bahá’is à Haïfa et en Galilée occidentale,2008,0, ,35.09011471,32.9163676,-9999,9.535642971,0,0,1,0,0,1,(iii)(vi),Cultural,C,Lebanon,Liban,Arab States,États arabes,lb,lbn,0,2,3,0,-2,25,8.662393,0.7321238,1,1,1,0,0,0
40,1220,10,Mansion of Mazra'ih,Bahá’i Holy Places in Haifa and the Western Galilee,Lieux saints bahá’is à Haïfa et en Galilée occidentale,2008,0, ,35.09977824,32.98719269,-9999,4.427923823,0,0,1,0,0,0,(iii),Cultural,C,Tunisia,Tunisie,Arab States,États arabes,tn,tun,0,3,,0,0,6,4.8,1,0,0,0,0,108.3862766,0
41,1220,11,Junayn,Bahá’i Holy Places in Haifa and the Western Galilee,Lieux saints bahá’is à Haïfa et en Galilée occidentale,2008,0, ,35.09524497,32.99423084,-9999,0.939546645,0,0,1,0,0,0,(iii),Cultural,C,Tunisia,Tunisie,Arab States,États arabes,tn,tun,0,3,,0,19,23,19,0,1,0,0,827.4044731,1051.018539,827.4044731
42,1042,0, ,Old City of Acre,Vieille ville d’Acre,2001,0, ,35.07028866,32.9226549,63.3,44.70375724,1,1,1,1,0,0,(i)(ii)(iii)(iv),Cultural,C,Turkey,Turquie,Europe and North America,Europe et Amérique du nord,tr,tur,0,2,,0,16,52,39.125,0,1,1,1,339.8222776,96.17236133,339.8222776
43,1096,0, ,White City of Tel-Aviv -- the Modern Movement,Ville blanche de Tel-Aviv – le mouvement moderne,2003,0, ,34.77396203,32.07385877,140.4,272.0858327,1,1,1,1,0,0,(i)(ii)(iii)(iv),Cultural,C,Turkey,Turquie,Europe and North America,Europe et Amérique du nord,tr,tur,0,2,,0,14,65,47.571,0,1,1,1,165.7704438,0,165.7704438
45,394,0, ,Venice and its Lagoon,Venise et sa lagune,1987,0, ,12.37550933,45.47187121,-9999,69672.09297,1,1,1,1,0,0,(i)(ii)(iii)(iv),Cultural,C,Turkey,Turquie,Europe and North America,Europe et Amérique du nord,tr,tur,0,2,,0,0,58,29.658,0.0784425,1,1,1,0,0,0
46,788,3,Neonian Baptistry,Early Christian Monuments of Ravenna,Monuments paléochrétiens de Ravenne,1996,0, ,12.197342,44.415614,0.01,0.009950784,1,1,1,1,0,0,(i)(ii)(iii)(iv),Cultural,C,Turkey,Turquie,Europe and North America,Europe et Amérique du nord,tr,tur,0,2,,0,-1,88,40.877,0.1165655,1,1,1,76.55604081,349.2198326,76.55604081
49,788,2,Church of St. Vitale,Early Christian Monuments of Ravenna,Monuments paléochrétiens de Ravenne,1996,0, ,12.19634796,44.42053278,0.14,0.174261399,1,1,1,1,1,1,(i)(ii)(iii)(iv)(v)(vi),Cultural,C,Italy,Italie,Europe and North America,Europe et Amérique du nord,it,ita,0,1,2,0,-20,20,-0.62431,0.9997231,1,1,1,0,0,0
57,825,0, ,Archaeological Area and the Patriarchal Basilica of Aquileia,Zone archéologique et la basilique patriarcale d’Aquilée,1998,0, ,13.3667075,45.77351197,155.3,131.2020483,1,1,0,1,0,1,(i)(ii)(iv)(vi),Cultural,C,Italy,Italie,Europe and North America,Europe et Amérique du nord,it,ita,0,2,,254,2,14,7.6471,0.8661017,1,1,1,9136.32983,7458.956936,9136.32983
58,842,1,"Paestum, Velia, the Certosa di Padula, Mount Cervati and the Vallo di Diano","Cilento and Vallo di Diano National Park with the Archeological Sites of Paestum and Velia, and the Certosa di Padula","Parc national du Cilento et du Vallo Diano, avec les sites archéologiques de Paestum et Velia et la Chartreuse de Padula",1998,0, ,15.37649056,40.32880639,1371,137168.0615,0,1,1,0,0,0,(ii)(iii),Cultural,C,Turkey,Turquie,Europe and North America,Europe et Amérique du nord,tr,tur,0,3,,0,19,27,20.571,0,0,0,0,7199.390526,7756.050997,7199.390526
59,842,2,Punta Licosa and the Mount Stella region,"Cilento and Vallo di Diano National Park with the Archeological Sites of Paestum and Velia, and the Certosa di Padula","Parc national du Cilento et du Vallo Diano, avec les sites archéologiques de Paestum et Velia et la Chartreuse de Padula",1998,0, ,15.0042921,40.26070331,111.29,10087.10425,0,1,1,0,0,0,(ii)(iii),Cultural,C,Turkey,Turquie,Europe and North America,Europe et Amérique du nord,tr,tur,0,3,,29,3,83,25.605,0.4031791,0,0,0,3156.242768,3666.287338,3156.242768
60,842,3,"Capo Palinuro, Punta d. Infreschi and the Mount Bulgheria region","Cilento and Vallo di Diano National Park with the Archeological Sites of Paestum and Velia, and the Certosa di Padula","Parc national du Cilento et du Vallo Diano, avec les sites archéologiques de Paestum et Velia et la Chartreuse de Padula",1998,0, ,15.37718577,40.07664114,126.41,10176.7738,0,1,1,0,0,0,(ii)(iii),Cultural,C,Turkey,Turquie,Europe and North America,Europe et Amérique du nord,tr,tur,0,3,,34.4,16,110,62.585,0,0,0,0,7361.513109,7916.411418,7361.513109
61,829,5,Theatre of Herculaneum,"Archaeological Areas of Pompei, Herculaneum and Torre Annunziata","Zones archéologiques de Pompéi, Herculanum et Torre Annunziata",1997,0, ,14.34761,40.80833,0.17,0.169305809,0,1,0,1,1,0,(ii)(iv)(v),Cultural,C,Greece,Grèce,Europe and North America,Europe et Amérique du nord,gr,grc,0,2,,0,4,37,21.756,0.082738,1,1,1,19.24499507,167.8169246,19.24499507
62,712,22,Villa Pisani Montagnana,City of Vicenza and the Palladian Villas of the Veneto,Ville de Vicence et les villas de Palladio en Vénétie,1994,1996, ,11.469609,45.230557,0.21,0.208926528,0,0,1,1,1,0,(iii)(iv)(v),Cultural,C,Tunisia,Tunisie,Arab States,États arabes,tn,tun,0,2,,60.99,5,42,25.085,0.0509003,1,1,1,429.3738239,308.5571924,308.5571924
63,712,13,Villa Thiene Quinto Vicentino,City of Vicenza and the Palladian Villas of the Veneto,Ville de Vicence et les villas de Palladio en Vénétie,1994,1996, ,11.625166,45.57298,0.38,0.378537603,0,1,1,1,0,1,(ii)(iii)(iv)(vi),Cultural,C,Greece,Grèce,Europe and North America,Europe et Amérique du nord,gr,grc,0,3,,0,0,97,26.608,0.2227692,0,0,0,0,0,0
64,829,7,Torre Annuziata: Villa B,"Archaeological Areas of Pompei, Herculaneum and Torre Annunziata","Zones archéologiques de Pompéi, Herculanum et Torre Annunziata",1997,0, ,14.45628,40.75628,0.55,0.54884123,0,1,0,0,1,0,(ii)(v),Cultural,C,Algeria,Algérie,Arab States,États arabes,dz,dza,0,2,,0,0,129,54.026,0.0872361,1,1,1,0,0,0
65,712,12,Villa Saraceno Agugliaro,City of Vicenza and the Palladian Villas of the Veneto,Ville de Vicence et les villas de Palladio en Vénétie,1994,1996, ,11.566445,45.312559,0.59,0.588207715,0,0,1,0,0,0,(iii),Cultural,C,Albania,Albanie,Europe and North America,Europe et Amérique du nord,al,alb,0,3,,8591,-5,172,20.248,0.6028194,0,0,0,338.0922237,402.9451469,338.0922237
66,712,3,Villa Gazzotti Grimani Bertesina (Vicenza),City of Vicenza and the Palladian Villas of the Veneto,Ville de Vicence et les villas de Palladio en Vénétie,1994,1996, ,11.600919,45.559414,0.9,0.897703959,0,1,1,0,0,0,(ii)(iii),Cultural,C,Greece,Grèce,Europe and North America,Europe et Amérique du nord,gr,grc,0,3,,0,-2,20,5.5958,0.8769239,1,1,1,0,0,0
67,829,2,Villa dei Misteri (Pompei),"Archaeological Areas of Pompei, Herculaneum and Torre Annunziata","Zones archéologiques de Pompéi, Herculanum et Torre Annunziata",1997,0, ,14.477437,40.75367799,0.95,0.948711528,0,1,1,0,0,0,(ii)(iii),Cultural,C,Greece,Grèce,Europe and North America,Europe et Amérique du nord,gr,grc,0,3,,402.25,0,226,89.405,0.142152,1,1,1,0,27.65017155,0
68,829,6,Torre Annuziata: Villa A,"Archaeological Areas of Pompei, Herculaneum and Torre Annunziata","Zones archéologiques de Pompéi, Herculanum et Torre Annunziata",1997,0, ,14.45256,40.75706,1.15,1.1486459,1,1,0,0,0,0,(i)(ii),Cultural,C,Italy,Italie,Europe and North America,Europe et Amérique du nord,it,ita,0,2,,0,18,18,18,0,1,1,1,52508.42958,53683.84334,52508.42958
69,829,4,Villa dei Papiri,"Archaeological Areas of Pompei, Herculaneum and Torre Annunziata","Zones archéologiques de Pompéi, Herculanum et Torre Annunziata",1997,0, ,14.34485181,40.80818282,1.22,1.640565132,1,1,0,0,0,0,(i)(ii),Cultural,C,Italy,Italie,Europe and North America,Europe et Amérique du nord,it,ita,0,2,,0,33,35,35,0,1,1,1,45656.47562,45434.19479,45656.47562
70,712,25,Villa Piovene Lugo Vicentino,City of Vicenza and the Palladian Villas of the Veneto,Ville de Vicence et les villas de Palladio en Vénétie,1994,1996, ,11.533394,45.747741,1.33,1.327090486,1,1,0,0,0,0,(i)(ii),Cultural,C,Italy,Italie,Europe and North America,Europe et Amérique du nord,it,ita,0,2,,0,12,15,12,0,0,0,0,44373.60949,45048.31014,44373.60949
71,712,17,Villa Badoer called Fratta Polesine,City of Vicenza and the Palladian Villas of the Veneto,Ville de Vicence et les villas de Palladio en Vénétie,1994,1996, ,11.63985794,45.03059463,1.41,1.378131032,1,1,0,0,0,0,(i)(ii),Cultural,C,Italy,Italie,Europe and North America,Europe et Amérique du nord,it,ita,0,2,,0,34,36,35,0,1,0,0,46691.58122,46473.39571,46691.58122
72,712,10,Villa Pisani Ferri Bagnolo Maggiore,City of Vicenza and the Palladian Villas of the Veneto,Ville de Vicence et les villas de Palladio en Vénétie,1994,1996, ,11.371396,45.357154,1.6,1.596961572,1,1,0,0,0,0,(i)(ii),Cultural,C,Italy,Italie,Europe and North America,Europe et Amérique du nord,it,ita,0,2,,0,200,227,211.5,0,0,1,0,62409.32369,62164.55888,62409.32369
73,712,8,Villa Forni Cerato Montecchio Precalcino,City of Vicenza and the Palladian Villas of the Veneto,Ville de Vicence et les villas de Palladio en Vénétie,1994,1996, ,11.562264,45.65891901,2.23,2.226209962,1,1,0,0,0,0,(i)(ii),Cultural,C,Italy,Italie,Europe and North America,Europe et Amérique du nord,it,ita,0,2,,0,6,10,8,1,0,1,0,47779.12627,47727.1041,47779.12627
74,712,6,Villa Caldogno,City of Vicenza and the Palladian Villas of the Veneto,Ville de Vicence et les villas de Palladio en Vénétie,1994,1996, ,11.508086,45.61509601,2.77,2.765805753,1,1,0,0,0,0,(i)(ii),Cultural,C,Italy,Italie,Europe and North America,Europe et Amérique du nord,it,ita,0,2,,0,26,31,27,0,0,0,0,59958.55248,60356.44231,59958.55248
75,712,24,Villa Serego San Pierto in Cariano,City of Vicenza and the Palladian Villas of the Veneto,Ville de Vicence et les villas de Palladio en Vénétie,1994,1996, ,10.923894,45.49938101,2.78,2.775865875,1,1,0,0,0,0,(i)(ii),Cultural,C,Italy,Italie,Europe and North America,Europe et Amérique du nord,it,ita,0,2,,0,71,77,73.25,0,1,1,0,54675.05262,54445.40327,54675.05262
76,712,16,Villa Valmarana Bressan Monticello Conte Otto,City of Vicenza and the Palladian Villas of the Veneto,Ville de Vicence et les villas de Palladio en Vénétie,1994,1996, ,11.584425,45.60746201,3.29,3.285390905,1,1,0,0,0,0,(i)(ii),Cultural,C,Italy,Italie,Europe and North America,Europe et Amérique du nord,it,ita,0,2,,0,51,55,53.8,0,1,1,1,55862.24698,55639.90592,55862.24698
77,712,5,Villa Angarano Bassano,City of Vicenza and the Palladian Villas of the Veneto,Ville de Vicence et les villas de Palladio en Vénétie,1994,1996, ,11.72361,45.78056001,3.58,3.574967468,1,1,0,0,0,0,(i)(ii),Cultural,C,Italy,Italie,Europe and North America,Europe et Amérique du nord,it,ita,0,2,,0,99,108,104,0,1,1,1,96275.86276,96094.99768,96275.86276
78,712,14,Villa Trissino Sarego,City of Vicenza and the Palladian Villas of the Veneto,Ville de Vicence et les villas de Palladio en Vénétie,1994,1996, ,11.412739,45.43257001,3.78,3.775119444,1,1,0,0,0,0,(i)(ii),Cultural,C,Italy,Italie,Europe and North America,Europe et Amérique du nord,it,ita,0,2,,0,41,46,44.4,0,1,1,1,50199.84114,49974.70881,50199.84114
79,726,3,Marechiaro,Historic Centre of Naples,Centre historique de Naples,1995,0, ,14.1920714,40.79571993,4,4.404388664,1,1,0,0,0,0,(i)(ii),Cultural,C,Italy,Italie,Europe and North America,Europe et Amérique du nord,it,ita,0,2,,0,121,129,124.2,0,1,1,1,53461.73319,53469.54384,53461.73319
80,712,15,Villa Valmarana Zen Bolzano Vicentino,City of Vicenza and the Palladian Villas of the Veneto,Ville de Vicence et les villas de Palladio en Vénétie,1994,1996, ,11.61021,45.57994601,4.34,4.33464472,1,1,0,0,0,0,(i)(ii),Cultural,C,Italy,Italie,Europe and North America,Europe et Amérique du nord,it,ita,0,2,,0,37,48,39.6,0,0,1,1,57449.12346,57276.05909,57449.12346
81,712,9,Villa Godi Malinverni Lonedo di Lugo Vicentino,City of Vicenza and the Palladian Villas of the Veneto,Ville de Vicence et les villas de Palladio en Vénétie,1994,1996, ,11.534809,45.74571501,4.66,4.654200636,1,1,0,0,0,0,(i)(ii),Cultural,C,Italy,Italie,Europe and North America,Europe et Amérique du nord,it,ita,0,2,,0,36,41,38.375,0,1,1,1,46965.55528,46743.00862,46965.55528
82,826,4,Isola Tinetto,"Portovenere, Cinque Terre, and the Islands (Palmaria, Tino and Tinetto)","Portovenere, Cinque Terre et les îles (Palmaria, Tino et Tinetto)",1997,0, ,9.851148765,44.02378408,4.69,0.876087174,1,1,0,0,0,0,(i)(ii),Cultural,C,Italy,Italie,Europe and North America,Europe et Amérique du nord,it,ita,0,2,,0,165,214,182.78,0,0,1,0,62124.35241,61879.141,62124.35241
83,712,21,"Villa Foscari, called Mira",City of Vicenza and the Palladian Villas of the Veneto,Ville de Vicence et les villas de Palladio en Vénétie,1994,1996, ,12.2005713,45.43643002,5.87,6.159363193,1,1,0,0,0,0,(i)(ii),Cultural,C,Italy,Italie,Europe and North America,Europe et Amérique du nord,it,ita,0,2,,0,-3,2,-1.5714,1,1,1,1,1127.535231,1832.419501,1127.535231
84,712,11,Villa Pojana Poiana Maggioare,City of Vicenza and the Palladian Villas of the Veneto,Ville de Vicence et les villas de Palladio en Vénétie,1994,1996, ,11.49937378,45.28497376,6.14,6.184175691,1,1,0,0,0,0,(i)(ii),Cultural,C,Italy,Italie,Europe and North America,Europe et Amérique du nord,it,ita,0,2,,0,10,15,11.636,0.0457841,1,1,1,49491.69972,50366.80773,49491.69972
85,712,18,Villa Barbaro Maser,City of Vicenza and the Palladian Villas of the Veneto,Ville de Vicence et les villas de Palladio en Vénétie,1994,1996, ,11.976502,45.81217502,6.57,6.562842657,1,1,0,0,0,0,(i)(ii),Cultural,C,Italy,Italie,Europe and North America,Europe et Amérique du nord,it,ita,0,2,,0,149,188,163.08,0,0,0,0,43964.38696,43485.13396,43964.38696
86,712,23,Villa Cornaro Piombino Dese,City of Vicenza and the Palladian Villas of the Veneto,Ville de Vicence et les villas de Palladio en Vénétie,1994,1996, ,11.99917,45.60389002,7.44,7.432711583,1,1,0,0,0,0,(i)(ii),Cultural,C,Italy,Italie,Europe and North America,Europe et Amérique du nord,it,ita,0,2,,0,19,24,21.769,0,1,1,1,24325.57056,24379.9924,24325.57056
87,712,20,Villa Zeno Cessalto,City of Vicenza and the Palladian Villas of the Veneto,Ville de Vicence et les villas de Palladio en Vénétie,1994,1996, ,12.64393731,45.70182583,7.71,7.726597477,1,1,0,0,0,0,(i)(ii),Cultural,C,Italy,Italie,Europe and North America,Europe et Amérique du nord,it,ita,0,2,,0,-1,6,1.5,1,0,0,0,16049.34457,15186.7751,16049.34457
88,712,4,"Villa Almerico Capra, called Vicenza",City of Vicenza and the Palladian Villas of the Veneto,Ville de Vicence et les villas de Palladio en Vénétie,1994,1996, ,11.56,45.53167002,9,8.991968708,1,1,0,0,0,0,(i)(ii),Cultural,C,Italy,Italie,Europe and North America,Europe et Amérique du nord,it,ita,0,2,,0,29,47,37.467,0,1,1,1,48396.13157,48186.60082,48396.13157
89,829,3,Heraculaneum,"Archaeological Areas of Pompei, Herculaneum and Torre Annunziata","Zones archéologiques de Pompéi, Herculanum et Torre Annunziata",1997,0, ,14.34734494,40.80528938,9.42,9.015827491,1,1,0,0,0,0,(i)(ii),Cultural,C,Italy,Italie,Europe and North America,Europe et Amérique du nord,it,ita,0,2,,0,21,27,24.316,0,1,1,1,41086.31664,40878.96019,41086.31664
90,712,7,Villa Chiericati Grumolo delle Abbadesse,City of Vicenza and the Palladian Villas of the Veneto,Ville de Vicence et les villas de Palladio en Vénétie,1994,1996, ,11.644657,45.50311903,11.75,11.74069915,1,1,0,0,0,0,(i)(ii),Cultural,C,Italy,Italie,Europe and North America,Europe et Amérique du nord,it,ita,0,2,,0,30,41,36,0,1,1,1,50663.993,50447.9339,50663.993
91,712,2,"Villa Trissino, now Trettenero Cricoli",City of Vicenza and the Palladian Villas of the Veneto,Ville de Vicence et les villas de Palladio en Vénétie,1994,1996, ,11.54694,45.56528003,13,12.99002305,1,1,0,0,0,0,(i)(ii),Cultural,C,Italy,Italie,Europe and North America,Europe et Amérique du nord,it,ita,0,2,,0,58,64,59.773,0,0,0,0,33850.86932,33479.97187,33850.86932
92,826,3,Isola Tino,"Portovenere, Cinque Terre, and the Islands (Palmaria, Tino and Tinetto)","Portovenere, Cinque Terre et les îles (Palmaria, Tino et Tinetto)",1997,0, ,9.850636558,44.02690336,13.31,12.67426566,1,1,0,0,0,0,(i)(ii),Cultural,C,Italy,Italie,Europe and North America,Europe et Amérique du nord,it,ita,0,2,,0,30,55,38.179,0,1,1,1,49180.49732,48967.62248,49180.49732
93,712,19,Villa Emo Vedelago,City of Vicenza and the Palladian Villas of the Veneto,Ville de Vicence et les villas de Palladio en Vénétie,1994,1996, ,11.98972,45.71194003,14.54,14.52885717,0,1,0,1,0,0,(ii)(iv),Cultural,C,Italy,Italie,Europe and North America,Europe et Amérique du nord,it,ita,0,2,,0,0,35,11.286,0.4261028,1,1,1,25.56915749,21.58063982,25.56915749
94,726,2,"District of Villa Manzo, Santa Maria della Consolazione",Historic Centre of Naples,Centre historique de Naples,1995,0, ,14.20504704,40.81791841,15.5,18.24333165,0,1,0,1,0,0,(ii)(iv),Cultural,C,Italy,Italie,Europe and North America,Europe et Amérique du nord,it,ita,0,2,,0,110,188,159.08,0,1,1,1,300.6729778,279.0860823,300.6729778
95,726,4,District of Casale and Santo Strato,Historic Centre of Naples,Centre historique de Naples,1995,0, ,14.19041864,40.80381102,19.75,19.2955188,0,1,0,1,0,0,(ii)(iv),Cultural,C,Italy,Italie,Europe and North America,Europe et Amérique du nord,it,ita,0,2,,0,85,144,112.76,0,1,1,1,701.5847568,686.7412222,701.5847568
96,829,1,Pompeii,"Archaeological Areas of Pompei, Herculaneum and Torre Annunziata","Zones archéologiques de Pompéi, Herculanum et Torre Annunziata",1997,0, ,14.48797828,40.75074856,84.59,83.65485797,0,1,0,1,0,0,(ii)(iv),Cultural,C,Italy,Italie,Europe and North America,Europe et Amérique du nord,it,ita,0,2,,0,-3,242,66.635,0.0714707,1,1,1,0,0,0
97,826,2,Isola Palmaria,"Portovenere, Cinque Terre, and the Islands (Palmaria, Tino and Tinetto)","Portovenere, Cinque Terre et les îles (Palmaria, Tino et Tinetto)",1997,0, ,9.844863597,44.04356773,159.71,158.0457366,0,1,1,1,1,1,(ii)(iii)(iv)(v)(vi),Cultural,C,Italy,Italie,Europe and North America,Europe et Amérique du nord,it,ita,0,1,,0,-3,19,6.5358,0.9349922,1,1,0,59030.37341,59275.6562,59030.37341
98,712,1,City of Vicenza (including 23 buildings constructed by Palladio),City of Vicenza and the Palladian Villas of the Veneto,Ville de Vicence et les villas de Palladio en Vénétie,1994,1996, ,11.54944,45.5491705,218,217.9395893,0,1,1,1,1,1,(ii)(iii)(iv)(v)(vi),Cultural,C,Italy,Italie,Europe and North America,Europe et Amérique du nord,it,ita,0,1,2,117649,-10,18,-0.093728,0.988069,1,1,0,0,0,0
99,726,1,Historical Centre of Naples,Historic Centre of Naples,Centre historique de Naples,1995,0, ,14.24663766,40.84863159,981.75,978.87379,1,1,1,1,0,0,(i)(ii)(iii)(iv),Cultural,C,Italy,Italie,Europe and North America,Europe et Amérique du nord,it,ita,0,4,,-9999,4,4,4,1,1,1,1,8451.835863,8663.186505,8451.835863
100,826,1,Cinque Terre and Portovenere,"Portovenere, Cinque Terre, and the Islands (Palmaria, Tino and Tinetto)","Portovenere, Cinque Terre et les îles (Palmaria, Tino et Tinetto)",1997,0, ,9.667366058,44.15874144,4511.54,5584.199631,1,1,1,1,0,0,(i)(ii)(iii)(iv),Cultural,C,Italy,Italie,Europe and North America,Europe et Amérique du nord,it,ita,0,4,,-9999,6,7,6.913,1,1,1,1,8334.455313,8531.011355,8334.455313
101,733,2,Diamantina,"Ferrara, City of the Renaissance, and its Po Delta","Ferrare, ville de la Renaissance, et son delta du Pô",1995,1999, ,11.46528764,44.90585452,5320,3149.110099,1,1,1,1,0,0,(i)(ii)(iii)(iv),Cultural,C,Italy,Italie,Europe and North America,Europe et Amérique du nord,it,ita,0,4,,0.68,7,10,7.2308,1,1,1,1,7955.676206,8166.354043,7955.676206
102,830,0, ,Costiera Amalfitana,Côte amalfitaine,1997,0, ,14.62065772,40.66728134,11231,10652.52517,1,1,1,1,0,0,(i)(ii)(iii)(iv),Cultural,C,Italy,Italie,Europe and North America,Europe et Amérique du nord,it,ita,0,4,,2.92,2,5,2.6923,1,1,1,1,7812.843833,8024.479207,7812.843833
103,788,6,Arian Baptistry,Early Christian Monuments of Ravenna,Monuments paléochrétiens de Ravenne,1996,0, ,12.20243848,44.41870573,0.008,0.007960624,1,1,1,1,0,0,(i)(ii)(iii)(iv),Cultural,C,Italy,Italie,Europe and North America,Europe et Amérique du nord,it,ita,0,4,,3.02,4,4,4,1,1,1,1,8474.368655,8685.868938,8474.368655
105,788,5,Basilica of St. Apollinaire Nuovo,Early Christian Monuments of Ravenna,Monuments paléochrétiens de Ravenne,1996,0, ,12.20493307,44.4167839,0.17,0.181851398,1,1,1,1,0,0,(i)(ii)(iii)(iv),Cultural,C,Italy,Italie,Europe and North America,Europe et Amérique du nord,it,ita,0,4,,4.5,6,6,6,1,1,1,1,8282.902143,8477.572878,8282.902143
106,788,4,Archiepiscopal Chapel,Early Christian Monuments of Ravenna,Monuments paléochrétiens de Ravenne,1996,0, ,12.197322,44.415146,0.002,0.001990531,1,1,1,1,0,0,(i)(ii)(iii)(iv),Cultural,C,Italy,Italie,Europe and North America,Europe et Amérique du nord,it,ita,0,4,,21.6,1,5,2.4211,1,1,1,1,7237.306084,7423.572437,7237.306084
107,788,1,Mausoleum of Galla Placida,Early Christian Monuments of Ravenna,Monuments paléochrétiens de Ravenne,1996,0, ,12.19711308,44.42097178,0.01,0.016852163,1,1,1,1,0,0,(i)(ii)(iii)(iv),Cultural,C,Italy,Italie,Europe and North America,Europe et Amérique du nord,it,ita,0,4,,33.14,-5,1,1,1,1,1,1,6659.974662,6411.471258,6659.974662
109,788,7,Mausoleum of Theodoric,Early Christian Monuments of Ravenna,Monuments paléochrétiens de Ravenne,1996,0, ,12.209174,44.425051,0.014,0.013931065,0,1,1,1,0,0,(ii)(iii)(iv),Cultural,C,Croatia,Croatie,Europe and North America,Europe et Amérique du nord,hr,hrv,0,2,,0,-3,7,7,1,1,1,1,0,66.59199153,0
110,788,8,Basilica of St. Apollinare in Classe,Early Christian Monuments of Ravenna,Monuments paléochrétiens de Ravenne,1996,0, ,12.23292603,44.38041814,0.96,0.965933744,0,1,0,1,0,0,(ii)(iv),Cultural,C,Croatia,Croatie,Europe and North America,Europe et Amérique du nord,hr,hrv,0,2,,4.8,-2,5,1.9,1,1,1,1,52.98221381,0,0
111,1211,0, ,Genoa: Le Strade Nuove and the system of the Palazzi dei Rolli,"Gênes, les Strade Nuove et le système des palais des Rolli",2006,0,0,8.931528683,44.41165477,15.78,21.009086,0,0,1,1,0,1,(iii)(iv)(vi),Cultural,C,Italy,Italie,Europe and North America,Europe et Amérique du nord,it,ita,0,3,4,0,-4,8,0.78636,1,0,1,1,3521.979507,3065.084408,3521.979507
112,395,0, ,"Piazza del Duomo, Pisa",Piazza del Duomo à Pise,1987,0, ,10.39554648,43.72326564,8.87,9.289367564,0,1,0,1,1,0,(ii)(iv)(v),Cultural,C,Italy,Italie,Europe and North America,Europe et Amérique du nord,it,ita,0,1,,0,0,0,0,1,0,0,0,0,0,0
114,1200,2,"Epipolae, Achradina, Tyche and Neapolis, Euryalus Castle, Dionysian fortifications and the Scala Greca area",Syracuse and the Rocky Necropolis of Pantalica,Syracuse et la nécropole rocheuse de Pantalica,2005,0, ,15.23939879,37.09240502,635.96,657.3889967,0,1,0,1,1,0,(ii)(iv)(v),Cultural,C,Italy,Italie,Europe and North America,Europe et Amérique du nord,it,ita,0,1,,0,-1,76,29.905,0.2612358,0,0,0,0,0,0
115,1200,3,Ortygia,Syracuse and the Rocky Necropolis of Pantalica,Syracuse et la nécropole rocheuse de Pantalica,2005,0, ,15.29432941,37.06125586,56.64,59.82502441,0,1,0,1,1,0,(ii)(iv)(v),Cultural,C,Italy,Italie,Europe and North America,Europe et Amérique du nord,it,ita,0,1,,0,-2,183,77.314,0.1044124,1,0,0,0,0,0
118,1200,1,Necropolis of Pantalica,Syracuse and the Rocky Necropolis of Pantalica,Syracuse et la nécropole rocheuse de Pantalica,2005,0, ,15.028333,37.14166735,205.86,206.2031285,0,1,0,1,1,0,(ii)(iv)(v),Cultural,C,Italy,Italie,Europe and North America,Europe et Amérique du nord,it,ita,0,1,,0,-14,804,349.13,0.0229214,1,1,1,0,0,0
119,733,1,Ferrara,"Ferrara, City of the Renaissance, and its Po Delta","Ferrare, ville de la Renaissance, et son delta du Pô",1995,1999, ,11.77027033,44.86733094,41392,39750.8564,0,0,1,1,1,0,(iii)(iv)(v),Cultural,C,Italy,Italie,Europe and North America,Europe et Amérique du nord,it,ita,0,3,,0,33,47,33,0,1,1,1,798.1545674,854.6150071,798.1545674
120,295,0, ,Byblos,Byblos,1984,0, ,35.6462339,34.11897624,-9999,10.78953891,0,0,1,1,1,0,(iii)(iv)(v),Cultural,C,Italy,Italie,Europe and North America,Europe et Amérique du nord,it,ita,0,3,,0,12,13,12.122,0,1,1,1,673.5555331,783.9955622,673.5555331
121,299,0, ,Tyre,Tyr,1984,0, ,35.21,33.265,153.8,164.962618,0,0,1,1,1,0,(iii)(iv)(v),Cultural,C,Italy,Italie,Europe and North America,Europe et Amérique du nord,it,ita,0,3,,0,20,32,22,0,1,1,1,1767.31368,1980.95443,1767.31368
122,183,0, ,Archaeological Site of Leptis Magna,Site archéologique de Leptis Magna,1982,0, ,14.29386611,32.63696721,-9999,131.5651224,0,0,1,1,1,0,(iii)(iv)(v),Cultural,C,Italy,Italie,Europe and North America,Europe et Amérique du nord,it,ita,0,3,,0,20,25,22.5,0,1,1,1,539.8949241,626.461289,539.8949241
123,184,0, ,Archaeological Site of Sabratha,Site archéologique de Sabratha,1982,0, ,12.48790907,32.80614153,-9999,43.61987865,0,0,1,1,1,0,(iii)(iv)(v),Cultural,C,Italy,Italie,Europe and North America,Europe et Amérique du nord,it,ita,0,3,,0,21,35,27,0,1,1,1,628.1235597,621.1882562,628.1235597
125,131,0, ,City of Valletta,Ville de La Valette,1980,0, ,14.5135434,35.89893083,55.5,73.14486125,0,0,1,1,1,0,(iii)(iv)(v),Cultural,C,Italy,Italie,Europe and North America,Europe et Amérique du nord,it,ita,0,3,,0,12,30,18.923,0,1,1,1,391.0781831,417.960204,391.0781831
126,125,0, ,Natural and Culturo-Historical Region of Kotor,Contrée naturelle et culturo-historique de Kotor,1979,0,P 1979-2003,18.75026368,42.46337537,14600,10100.60639,0,0,1,1,1,0,(iii)(iv)(v),Cultural,C,Italy,Italie,Europe and North America,Europe et Amérique du nord,it,ita,0,3,,0,10,46,26.86,0.0028457,1,1,1,1758.903387,2004.705544,1758.903387
129,875,14,Triumphal Arch of Bera 20 km E of Tarragona,Archaeological Ensemble of Tárraco,Ensemble archéologique de Tarragone,2000,0, ,1.469052,41.173373,0.01,0.009958323,0,1,0,1,1,0,(ii)(iv)(v),Cultural,C,Italy,Italie,Europe and North America,Europe et Amérique du nord,it,ita,0,1,,0,-2,1358,472.17,0.0064135,1,1,1,0,0,0
130,875,10,Tower of Scipios 5 km E of Tarragona,Archaeological Ensemble of Tárraco,Ensemble archéologique de Tarragone,2000,0, ,1.31896,41.131976,0.08,0.07966734,0,0,1,1,0,0,(iii)(iv),Cultural,C,Italy,Italie,Europe and North America,Europe et Amérique du nord,it,ita,0,1,,0,-8,1887,741.66,0.0091194,1,1,0,0,0,0
131,875,1,Roman walls Tarragona,Archaeological Ensemble of Tárraco,Ensemble archéologique de Tarragone,2000,0, ,1.25915065,41.11682112,0.6,0.981289395,0,0,1,1,0,0,(iii)(iv),Cultural,C,Italy,Italie,Europe and North America,Europe et Amérique du nord,it,ita,0,1,,0,0,1123,332.71,0.0171047,1,0,0,0,0,0
132,875,5,The Colonial Forum Tarragona,Archaeological Ensemble of Tárraco,Ensemble archéologique de Tarragone,2000,0, ,1.24906,41.11458,0.6,0.598764601,0,0,1,1,0,0,(iii)(iv),Cultural,C,Italy,Italie,Europe and North America,Europe et Amérique du nord,it,ita,0,1,,0,-5,1210,381.8,0.0238199,0,1,1,0,0,0
133,875,8,Paleochristian cemetry Tarragona,Archaeological Ensemble of Tárraco,Ensemble archéologique de Tarragone,2000,0, ,1.238832796,41.11580465,1.3,1.269388844,0,1,1,0,0,0,(ii)(iii),Cultural,C,Spain,Espagne,Europe and North America,Europe et Amérique du nord,es,esp,0,3,,0,13,16,15.462,0,1,1,1,754.5761611,880.0583747,754.5761611
134,875,2,The imperial cult enclosure Tarragona,Archaeological Ensemble of Tárraco,Ensemble archéologique de Tarragone,2000,0, ,1.25833,41.11953,2.23,2.228573948,0,1,1,0,0,0,(ii)(iii),Cultural,C,Spain,Espagne,Europe and North America,Europe et Amérique du nord,es,esp,0,3,,0,11,11,11,0,1,1,1,192.5817817,253.3957262,192.5817817
135,875,12,The 4.6 km NNW of Tarragona,Archaeological Ensemble of Tárraco,Ensemble archéologique de Tarragone,2000,0, ,1.226282,41.155727,2.24,2.238548718,0,1,1,0,0,0,(ii)(iii),Cultural,C,Spain,Espagne,Europe and North America,Europe et Amérique du nord,es,esp,0,3,,0,45,80,64.82,0,1,1,1,297.615666,398.4842377,297.615666
136,875,11,Medol Quary 9 km N of Tarragona,Archaeological Ensemble of Tárraco,Ensemble archéologique de Tarragone,2000,0, ,1.338026043,41.13854457,5.3,5.892562926,0,1,1,0,0,0,(ii)(iii),Cultural,C,Spain,Espagne,Europe and North America,Europe et Amérique du nord,es,esp,0,3,,0,37,39,39,0,1,1,1,566.7382237,550.9619142,566.7382237
137,875,3,Provincial Forum Tarragona,Archaeological Ensemble of Tárraco,Ensemble archéologique de Tarragone,2000,0, ,1.25583,41.11806001,5.85,5.849784531,0,1,1,0,0,0,(ii)(iii),Cultural,C,Spain,Espagne,Europe and North America,Europe et Amérique du nord,es,esp,0,3,,0,5,11,7.3333,0.8151574,1,1,1,803.873904,714.0198232,803.873904
138,875,13,The 10 km E of Tarragona,Archaeological Ensemble of Tárraco,Ensemble archéologique de Tarragone,2000,0, ,1.386568854,41.13619463,6.5,6.477120807,0,1,1,0,0,0,(ii)(iii),Cultural,C,Spain,Espagne,Europe and North America,Europe et Amérique du nord,es,esp,0,3,,0,68,79,74.25,0,1,1,1,592.9421992,648.6567668,592.9421992
142,875,6,The Roman Theatre Tarragona,Archaeological Ensemble of Tárraco,Ensemble archéologique de Tarragone,2000,0, ,1.249244396,41.11295342,0.54,0.516956993,0,1,1,0,0,0,(ii)(iii),Cultural,C,Spain,Espagne,Europe and North America,Europe et Amérique du nord,es,esp,0,3,,0,40,45,44,0,1,1,1,5307.109295,5222.707309,5307.109295
146,875,7,"The Amphitheatre, basilica, and Romanesque durch Tarragona",Archaeological Ensemble of Tárraco,Ensemble archéologique de Tarragone,2000,0, ,1.258663604,41.11451721,1,1.003472124,0,1,1,0,0,0,(ii)(iii),Cultural,C,Spain,Espagne,Europe and North America,Europe et Amérique du nord,es,esp,0,3,,0,7,40,15.25,0.1430774,1,1,1,1042.186097,996.2932486,1042.186097
150,875,4,The Circus Tarragona,Archaeological Ensemble of Tárraco,Ensemble archéologique de Tarragone,2000,0, ,1.255572128,41.11696075,6,6.011239015,0,1,1,0,0,0,(ii)(iii),Cultural,C,Spain,Espagne,Europe and North America,Europe et Amérique du nord,es,esp,0,3,,0,56,73,60,0,1,1,1,439.293356,536.2186263,439.293356
151,875,9,Aqueduct 4 km N of Tarragona,Archaeological Ensemble of Tárraco,Ensemble archéologique de Tarragone,2000,0, ,1.243851005,41.14596996,0.4,0.27841112,0,1,1,0,0,0,(ii)(iii),Cultural,C,Spain,Espagne,Europe and North America,Europe et Amérique du nord,es,esp,0,3,,0,7,25,13.2,0.1642568,1,1,1,131.24937,133.4529072,131.24937
152,1371,0, ,Cultural Landscape of the Serra de Tramuntana,Paysage culturel de la Serra de Tramuntana,2011,0, ,2.873739445,39.78994938,30745,30163.99401,0,1,1,0,0,0,(ii)(iii),Cultural,C,Spain,Espagne,Europe and North America,Europe et Amérique du nord,es,esp,0,3,,3.4,13,18,15.875,0,1,1,1,421.180695,409.8347678,421.180695
153,37,5,Land of the Roman house,Archaeological Site of Carthage,Site archéologique de Carthage,1979,0, ,10.33016477,36.85454328,0.65,0.625003671,0,1,1,0,0,0,(ii)(iii),Cultural,C,Spain,Espagne,Europe and North America,Europe et Amérique du nord,es,esp,0,3,,8,11,39,26,0.0711366,1,1,1,71.22603905,164.9675948,71.22603905
154,37,4,"Land of the ""Maison de la course des chars""",Archaeological Site of Carthage,Site archéologique de Carthage,1979,0, ,10.32679401,36.85422883,0.95,0.408072133,0,1,1,0,0,0,(ii)(iii),Cultural,C,Spain,Espagne,Europe and North America,Europe et Amérique du nord,es,esp,0,3,,27.5,50,61,54,0,1,1,1,283.6701382,389.5480875,283.6701382
155,37,3,El Mbazaa Field,Archaeological Site of Carthage,Site archéologique de Carthage,1979,0, ,10.3302122,36.85574568,1.08,1.307103994,0,1,1,0,0,0,(ii)(iii),Cultural,C,Spain,Espagne,Europe and North America,Europe et Amérique du nord,es,esp,0,3,,71.5,52,61,56.8,0,1,1,0,3700.224371,3779.392235,3700.224371
156,37,2,"Land of the ""Maison de la chasse au sanglier""",Archaeological Site of Carthage,Site archéologique de Carthage,1979,0, ,10.32706823,36.8556896,2.31,2.169220078,1,1,0,1,0,0,(i)(ii)(iv),Cultural,C,Croatia,Croatie,Europe and North America,Europe et Amérique du nord,hr,hrv,0,4,,15,-2,3,-2,1,0,1,1,3287.977424,147.4776552,147.4776552
157,37,7,Magon District,Archaeological Site of Carthage,Site archéologique de Carthage,1979,0, ,10.33176882,36.85166016,2.75,2.614680695,0,0,0,1,0,0,(iv),Cultural,C,Greece,Grèce,Europe and North America,Europe et Amérique du nord,gr,grc,0,2,,162,-2,36,17.561,0.1571742,1,1,1,0,0,0
158,37,8,Sector of Dermech Basilica,Archaeological Site of Carthage,Site archéologique de Carthage,1979,0, ,10.32449828,36.84823768,3.42,3.27899321,0,0,1,1,0,1,(iii)(iv)(vi),Cultural,C,Turkey,Turquie,Europe and North America,Europe et Amérique du nord,tr,tur,0,1,3,0,6,67,17.071,0.5224533,1,1,0,7464.259715,7423.37437,7464.259715
159,37,6,Sector of Bir Messaouda,Archaeological Site of Carthage,Site archéologique de Carthage,1979,0, ,10.32837363,36.84977827,7.1,6.757576713,0,0,1,1,0,1,(iii)(iv)(vi),Cultural,C,Turkey,Turquie,Europe and North America,Europe et Amérique du nord,tr,tur,0,3,,0,-1,345,62.344,0.3950059,1,1,0,426.003797,380.0028609,426.003797
160,37,9,Sector of Bib Knissia Basilica,Archaeological Site of Carthage,Site archéologique de Carthage,1979,0, ,10.31912124,36.84334218,7.67,6.601838885,0,0,1,1,0,1,(iii)(iv)(vi),Cultural,C,Turkey,Turquie,Europe and North America,Europe et Amérique du nord,tr,tur,0,4,,83,393,410,398,0,0,0,0,5161.966601,5116.941882,5161.966601
161,37,13,Land of the Roman houses of Amilcar,Archaeological Site of Carthage,Site archéologique de Carthage,1979,0, ,10.33906755,36.85914481,19.09,0.054411571,0,0,1,1,0,1,(iii)(iv)(vi),Cultural,C,Turkey,Turquie,Europe and North America,Europe et Amérique du nord,tr,tur,0,3,,1163.3,27,29,28,0,1,0,0,7149.491296,7173.133237,7149.491296
162,37,12,Basilica of Saint Cyprien,Archaeological Site of Carthage,Site archéologique de Carthage,1979,0, ,10.33636946,36.8631658,25.66,0.236866019,1,1,0,1,1,0,(i)(ii)(iv)(v),Cultural,C,Italy,Italie,Europe and North America,Europe et Amérique du nord,it,ita,0,2,,47.86,508,610,553.7,0,1,1,1,29280.65259,29270.66685,29280.65259
163,37,10,District of the punic ports and of the tophet,Archaeological Site of Carthage,Site archéologique de Carthage,1979,0, ,10.32546212,36.84238415,27.49,24.58197968,1,1,0,1,1,0,(i)(ii)(iv)(v),Cultural,C,Italy,Italie,Europe and North America,Europe et Amérique du nord,it,ita,0,2,,80.13,6,53,29.115,0.0176558,1,1,1,416.073267,197.0633609,197.0633609
164,37,11,Zone of the entrance to the harbours,Archaeological Site of Carthage,Site archéologique de Carthage,1979,0, ,10.32399973,36.8377307,74.37,0.204244413,1,1,0,1,1,0,(i)(ii)(iv)(v),Cultural,C,Italy,Italie,Europe and North America,Europe et Amérique du nord,it,ita,0,2,,27.48,404,420,409,0,1,1,1,27315.25671,27448.09687,27315.25671
165,37,1,The area of the hills,Archaeological Site of Carthage,Site archéologique de Carthage,1979,0, ,10.31521854,36.85153799,443.48,316.7820037,1,1,0,1,1,0,(i)(ii)(iv)(v),Cultural,C,Italy,Italie,Europe and North America,Europe et Amérique du nord,it,ita,0,2,,34,311,385,334.56,0,1,1,1,15159.64211,15176.66673,15159.64211
166,332,1,Archaeological site,Punic Town of Kerkuane and its Necropolis,Cité punique de Kerkouane et sa nécropole,1985,1986, ,11.0990538,36.94626965,0.1022,11.55245545,1,1,0,1,1,0,(i)(ii)(iv)(v),Cultural,C,Italy,Italie,Europe and North America,Europe et Amérique du nord,it,ita,0,2,,48.09,94,156,114.03,0,1,1,1,5307.527729,5570.659313,5307.527729
167,332,2,Necropolis,Punic Town of Kerkuane and its Necropolis,Cité punique de Kerkouane et sa nécropole,1985,1986, ,11.08630505,36.95586453,0.0097,0.976328781,1,1,0,1,1,0,(i)(ii)(iv)(v),Cultural,C,Italy,Italie,Europe and North America,Europe et Amérique du nord,it,ita,0,2,,33.74,679,692,685.5,0,1,1,1,27634.66411,27704.30674,27634.66411
168,498,0, ,Medina of Sousse,Médina de Sousse,1988,0, ,10.63771385,35.82502914,31.68,32.18979736,1,1,0,1,1,0,(i)(ii)(iv)(v),Cultural,C,Italy,Italie,Europe and North America,Europe et Amérique du nord,it,ita,0,2,,29.32,383,497,449.96,0,1,1,1,19819.85361,19889.79778,19819.85361
169,36,0, ,Medina of Tunis,Médina de Tunis,1979,0, ,10.16998584,36.79955799,296.41,298.4104249,1,1,0,1,1,0,(i)(ii)(iv)(v),Cultural,C,Italy,Italie,Europe and North America,Europe et Amérique du nord,it,ita,0,2,,5.18,113,115,115,0,1,1,1,6434.507411,6448.475932,6434.507411
171,484,2,Xanthos bis (outlier),Xanthos-Letoon,Xanthos-Letoon,1988,0, ,29.31534643,36.35509594,0.4,0.489042156,0,1,1,0,1,0,(ii)(iii)(v),Cultural,C,Israel,Israël,Europe and North America,Europe et Amérique du nord,il,isr,0,2,,22.99,0,18,7.9194,0.5723487,0,1,1,0,3.011961134,0
172,356,3,Zeyrek Mosque (Pantocrator Church) and its associated Conservation Area,Historic Areas of Istanbul,Zones historiques d'Istanbul,1985,0, ,28.957201,41.01964802,10,10.00196569,0,1,0,1,0,0,(ii)(iv),Cultural,C,Israel,Israël,Europe and North America,Europe et Amérique du nord,il,isr,0,2,,197,6,39,22.257,0.0424912,1,1,1,359.0738735,249.810596,249.810596
173,1018,3,"Ayasuluk Holl, Artemision and Medieval Settlement",Ephesus,Éphèse,2015,0, ,27.36227142,37.95016855,45.82,46.78728502,0,1,1,1,0,1,(ii)(iii)(iv)(vi),Cultural,C,Italy,Italie,Europe and North America,Europe et Amérique du nord,it,ita,0,3,,874.45,0,147,64.103,0.0406135,1,1,0,0,0,0
174,356,2,Süleymaniye Mosque and its associated Conservation Area,Historic Areas of Istanbul,Zones historiques d'Istanbul,1985,0, ,28.96111318,41.01574651,53,51.3847144,0,1,1,1,0,1,(ii)(iii)(iv)(vi),Cultural,C,Italy,Italie,Europe and North America,Europe et Amérique du nord,it,ita,0,2,,945.25,0,30,14.195,0.3170455,1,1,1,0,0,0
175,356,1,The Archaeological Park,Historic Areas of Istanbul,Zones historiques d'Istanbul,1985,0, ,28.97985488,41.00872839,109,124.1932868,0,1,1,1,0,1,(ii)(iii)(iv)(vi),Cultural,C,Italy,Italie,Europe and North America,Europe et Amérique du nord,it,ita,0,3,,3699.7,219,413,326.77,0,1,1,0,14312.14991,14204.82288,14312.14991
176,356,4,Land Walls of Istanbul,Historic Areas of Istanbul,Zones historiques d'Istanbul,1985,0, ,28.91737319,41.00362273,506,511.9686192,0,1,0,1,0,0,(ii)(iv),Cultural,C,Italy,Italie,Europe and North America,Europe et Amérique du nord,it,ita,0,2,,113,1,65,25.343,0.0303931,1,1,1,472.2710872,136.9621128,136.9621128
177,1018,2,Ancient city of Ephesus,Ephesus,Éphèse,2015,0, ,27.33708906,37.9390385,614.76,614.5961704,0,0,1,0,0,1,(iii)(vi),Cultural,C,Israel,Israël,Europe and North America,Europe et Amérique du nord,il,isr,0,4,,-9999,120,172,154.75,0,1,1,1,1338.120891,1143.391529,1338.120891
178,484,3,Letoon village of Kumuluova,Xanthos-Letoon,Xanthos-Letoon,1988,0, ,29.29342244,36.32730922,14,104.6617195,0,0,1,0,0,1,(iii)(vi),Cultural,C,Israel,Israël,Europe and North America,Europe et Amérique du nord,il,isr,0,4,,-9999,33,52,47.5,0,1,1,1,790.1123358,632.5998687,790.1123358
179,484,1,Xanthos Village of Kinik,Xanthos-Letoon,Xanthos-Letoon,1988,0, ,29.32276492,36.35887549,112,101.6621972,0,0,1,0,0,1,(iii)(vi),Cultural,C,Israel,Israël,Europe and North America,Europe et Amérique du nord,il,isr,0,4,,-9999,177,202,184.2,0,1,1,1,960.8504346,1017.779001,960.8504346
180,1018,4,House of Virgin Mary,Ephesus,Éphèse,2015,0, ,27.33361,37.91167,0.55,0.54919988,0,0,1,0,0,1,(iii)(vi),Cultural,C,Israel,Israël,Europe and North America,Europe et Amérique du nord,il,isr,0,4,,-9999,22,53,36.429,0,1,1,1,179.5597662,232.4507885,179.5597662
181,1018,1,Cukurici Mound,Ephesus,Éphèse,2015,0, ,27.359444,37.929167,1.5,1.499641204,0,0,1,0,0,1,(iii)(vi),Cultural,C,Israel,Israël,Europe and North America,Europe et Amérique du nord,il,isr,0,2,,-9999,12,29,19.905,0,1,1,1,1551.496058,1796.439369,1551.496058
182,1500,0, ,Gorham's Cave Complex,Ensemble des grottes de Gorham,2016,0, ,-5.342574617,36.12118023,28,6.942096342,0,0,1,0,0,1,(iii)(vi),Cultural,C,Israel,Israël,Europe and North America,Europe et Amérique du nord,il,isr,0,4,,-9999,13,16,14.2,0,0,0,1,127.7417137,240.5273949,127.7417137
190,1024,1,Caltagirone,Late Baroque Towns of the Val di Noto (South-Eastern Sicily),Villes du baroque tardif de la vallée de Noto (sud-est de la Sicile),2002,0, ,14.51300634,37.23827781,22.9,22.93112545,0,0,1,0,0,1,(iii)(vi),Cultural,C,Israel,Israël,Europe and North America,Europe et Amérique du nord,il,isr,0,4,,-9999,7,14,7,0.9394888,0,0,1,34.33859449,167.4847056,34.33859449
191,1024,2,Catania,Late Baroque Towns of the Val di Noto (South-Eastern Sicily),Villes du baroque tardif de la vallée de Noto (sud-est de la Sicile),2002,0, ,15.0844499,37.50344963,38.5,34.88291777,0,0,1,0,0,1,(iii)(vi),Cultural,C,Israel,Israël,Europe and North America,Europe et Amérique du nord,il,isr,0,4,,-9999,0,13,10,0.7694541,0,0,1,3.266510446,119.3014214,3.266510446
192,1024,3,Militello Val di Catania,Late Baroque Towns of the Val di Noto (South-Eastern Sicily),Villes du baroque tardif de la vallée de Noto (sud-est de la Sicile),2002,0, ,14.79481128,37.27148601,1.43,1.429939382,0,0,1,0,0,1,(iii)(vi),Cultural,C,Israel,Israël,Europe and North America,Europe et Amérique du nord,il,isr,0,2,,-9999,1,6,2.8333,1,1,1,1,680.3456554,869.2883061,680.3456554
193,1024,4,Modica,Late Baroque Towns of the Val di Noto (South-Eastern Sicily),Villes du baroque tardif de la vallée de Noto (sud-est de la Sicile),2002,0, ,14.760722,36.86030602,9,9.010047572,0,0,1,0,0,1,(iii)(vi),Cultural,C,Israel,Israël,Europe and North America,Europe et Amérique du nord,il,isr,0,2,,-9999,13,25,16.167,0,1,1,1,1206.729309,1417.555582,1206.729309
194,1024,5,Noto,Late Baroque Towns of the Val di Noto (South-Eastern Sicily),Villes du baroque tardif de la vallée de Noto (sud-est de la Sicile),2002,0, ,15.07001831,36.89101606,21.38,21.41074187,0,0,1,0,0,1,(iii)(vi),Cultural,C,Israel,Israël,Europe and North America,Europe et Amérique du nord,il,isr,0,4,,-9999,10,13,10,0.1551779,1,1,1,861.7106676,1117.580157,861.7106676
195,1024,6,Palazzolo Acreide,Late Baroque Towns of the Val di Noto (South-Eastern Sicily),Villes du baroque tardif de la vallée de Noto (sud-est de la Sicile),2002,0, ,14.903,37.062806,1.37,1.369850681,0,1,1,0,1,0,(ii)(iii)(v),Cultural,C,Croatia,Croatie,Europe and North America,Europe et Amérique du nord,hr,hrv,0,1,,6403.13,1,120,30.898,0.0386663,0,1,0,324.1289855,328.414609,324.1289855
196,1024,7,Ragusa,Late Baroque Towns of the Val di Noto (South-Eastern Sicily),Villes du baroque tardif de la vallée de Noto (sud-est de la Sicile),2002,0, ,14.73482715,36.92546661,17.39,17.41281252,0,1,0,1,1,0,(ii)(iv)(v),Cultural,C,Spain,Espagne,Europe and North America,Europe et Amérique du nord,es,esp,0,1,,78617,-5,1429,511.84,0.0005957,1,1,0,0,0,0
197,1024,8,Scicli,Late Baroque Towns of the Val di Noto (South-Eastern Sicily),Villes du baroque tardif de la vallée de Noto (sud-est de la Sicile),2002,0, ,14.70650159,36.79356395,0.82,0.819465113,0,0,1,0,0,0,(iii),Cultural,C,United Kingdom of Great Britain and Northern Ireland,Royaume-Uni de Grande-Bretagne et d'Irlande du Nord,Europe and North America,Europe et Amérique du nord,gb,gbr,0,1,3,313,0,377,224.4,0.0162038,1,1,0,0,0,0
198,1533,1,Fortified city of Bergamo,Venetian Works of Defence between 15th and 17th centuries: Stato da Terra – western Stato da Mar,Ouvrages de défense vénitiens du XVIe au XVIIe siècle : Stato da Terra - Stato da Mar occidental,2017,0,,9.663611,45.703333,119.61,,0,0,1,1,0,0,(iii)(iv),Cultural,C,Italy,Italie,Europe and North America,Europe et Amérique du nord,it,ita,1,2,,446.07,264,473,339.38,0,1,1,1,153755.2461,153871.2935,153755.2461
199,1533,2,Fortified city of Peschiera el Garda,Venetian Works of Defence between 15th and 17th centuries: Stato da Terra – western Stato da Mar,Ouvrages de défense vénitiens du XVIe au XVIIe siècle : Stato da Terra - Stato da Mar occidental,2017,0,,10.694167,45.438889,36.67,,0,0,1,1,0,0,(iii)(iv),Cultural,C,Italy,Italie,Europe and North America,Europe et Amérique du nord,it,ita,1,2,,143.85,60,80,70.387,0,1,1,1,113311.5804,113145.3566,113311.5804
200,1533,3,City Fortress of Palmanova,Venetian Works of Defence between 15th and 17th centuries: Stato da Terra – western Stato da Mar,Ouvrages de défense vénitiens du XVIe au XVIIe siècle : Stato da Terra - Stato da Mar occidental,2017,0,,13.309722,45.906111,193.73,,0,0,1,1,0,0,(iii)(iv),Cultural,C,Italy,Italie,Europe and North America,Europe et Amérique du nord,it,ita,1,2,,296.27,20,35,25.747,0,1,1,1,11651.18821,15460.88477,11651.18821
201,1533,4,Defensive System of Zadar,Venetian Works of Defence between 15th and 17th centuries: Stato da Terra – western Stato da Mar,Ouvrages de défense vénitiens du XVIe au XVIIe siècle : Stato da Terra - Stato da Mar occidental,2017,0,,15.230278,44.111667,11.19,,0,0,1,1,0,0,(iii)(iv),Cultural,C,Croatia,Croaie,Europe and North America,Europe et Amérique du nord,hr,hrv,1,2,,240.45,-2,11,5.2105,0.956179162,1,1,1,0,0,0
202,1533,5,"Fort of St. Nikola, Šibenik-Knin County",Venetian Works of Defence between 15th and 17th centuries: Stato da Terra – western Stato da Mar,Ouvrages de défense vénitiens du XVIe au XVIIe siècle : Stato da Terra - Stato da Mar occidental,2017,0,,15.854722,43.721389,0.85,,0,0,1,1,0,0,(iii)(iv),Cultural,C,Croatia,Croaie,Europe and North America,Europe et Amérique du nord,hr,hrv,1,2,,523.79,0,5,3,1,0,0,0,54.377949,0,54.377949
203,1533,6,Fortified city of Kotor,Venetian Works of Defence between 15th and 17th centuries: Stato da Terra – western Stato da Mar,Ouvrages de défense vénitiens du XVIe au XVIIe siècle : Stato da Terra - Stato da Mar occidental,2017,0,,18.771944,42.423611,16.32,,0,0,1,1,0,0,(iii)(iv),Cultural,C,Montenegro,Monténégro,Europe and North America,Europe et Amérique du nord,me,mne,1,2,,99.19,-1,210,55.885,0.291909928,1,1,1,34.465694,31.22393146,34.465694
